{
  "run_id": "run_c7829dad0588",
  "day_index": 3,
  "markers": [
    {
      "lat": 33.5908005,
      "lng": 130.4000978,
      "name": "원 후쿠오카 호텔"
    },
    {
      "lat": 33.5926385,
      "lng": 130.3838095,
      "name": "LOPIA (로피아 슈퍼)"
    },
    {
      "lat": 33.5887663,
      "lng": 130.4164997,
      "name": "Kanifuku (Kanifuku)"
    },
    {
      "lat": 33.586378,
      "lng": 130.4250999,
      "name": "하카타 잇소우 (博多一双)"
    },
    {
      "lat": 33.5849988,
      "lng": 130.4490906,
      "name": "후쿠오카 공항"
    }
  ],
  "path": [
    [
      33.5908005,
      130.4000978
    ],
    [
      33.5926385,
      130.3838095
    ],
    [
      33.5887663,
      130.4164997
    ],
    [
      33.586378,
      130.4250999
    ],
    [
      33.5849988,
      130.4490906
    ]
  ]
}