{
  "run_id": "run_c7829dad0588",
  "day_index": 2,
  "markers": [
    {
      "lat": 33.5908005,
      "lng": 130.4000978,
      "name": "원 후쿠오카 호텔"
    },
    {
      "lat": 33.585977,
      "lng": 130.4043368,
      "name": "おにぎりごりちゃん 天神店"
    },
    {
      "lat": 33.5886826,
      "lng": 130.3970791,
      "name": "Kenzo Stores (켄조 스토어, 岩田屋本店 본관 2F)"
    },
    {
      "lat": 33.5908956,
      "lng": 130.3811302,
      "name": "시나리우동"
    },
    {
      "lat": 33.5845902,
      "lng": 130.3879599,
      "name": "카페 요로즈 (よろず)"
    }
  ],
  "path": [
    [
      33.5908005,
      130.4000978
    ],
    [
      33.585977,
      130.4043368
    ],
    [
      33.5886826,
      130.3970791
    ],
    [
      33.5908956,
      130.3811302
    ],
    [
      33.5845902,
      130.3879599
    ]
  ]
}