{
  "run_id": "run_c7829dad0588",
  "day_index": 1,
  "markers": [
    {
      "lat": 33.5849988,
      "lng": 130.4490906,
      "name": "후쿠오카 공항"
    },
    {
      "lat": 33.5919475,
      "lng": 130.4065666,
      "name": "鰻のエイト 博多総本店"
    },
    {
      "lat": 33.58981,
      "lng": 130.4204315,
      "name": "아뮤플라자 하카타(アミュプラザ博多 / Amu Plaza Hakata)"
    },
    {
      "lat": 33.5903982,
      "lng": 130.4082999,
      "name": "중洲(나카스) 포차(屋台)"
    },
    {
      "lat": 33.5788371,
      "lng": 130.3935681,
      "name": "KKR 호텔 하카타"
    }
  ],
  "path": [
    [
      33.5849988,
      130.4490906
    ],
    [
      33.5919475,
      130.4065666
    ],
    [
      33.58981,
      130.4204315
    ],
    [
      33.5903982,
      130.4082999
    ],
    [
      33.5788371,
      130.3935681
    ]
  ]
}